{"_id":"1","location":{"coordinates":[1,2],"type":"Point"},"name":""}
{"_id":"2","location":{"coordinates":[-74.00682599999999,40.7428114],"type":"Point"},"name":"Doughnuttery"}
{"_id":"3","location":{"coordinates":[-73.8299791,40.75881330000001],"type":"Point"},"name":""}
{"_id":"4","location":{"coordinates":[-73.830457,40.7593244],"type":"Point"},"name":""}
{"_id":"5","location":{"coordinates":[-73.921341,40.760346],"type":"Point"},"name":"Mokja"}
{"_id":"6","location":{"coordinates":[-73.906438,40.669367],"type":"Point"},"name":""}
{"_id":"7","location":{"coordinates":[-73.99514429999999,40.7521509],"type":"Point"},"name":"Fairfield Inn Suites Penn Station"}
{"_id":"8","location":{"coordinates":[-73.9691347,40.6389857],"type":"Point"},"name":"Cold Press'D"}
{"_id":"9","location":{"coordinates":[-73.964618,40.801388],"type":"Point"},"name":"Subway"}
{"_id":"10","location":{"coordinates":[-74.138492,40.631136],"type":"Point"},"name":"Indian Oven"}
